{
  "features": [
    {
      "address": "Námestie SNP 1, 811 01 Bratislava, Slovensko",
      "latitude": 48.1455,
      "longitude": 17.1071
    },
    {
      "address": "Hviezdoslavovo námestie 1, 811 01 Bratislava, Slovensko",
      "latitude": 48.145,
      "longitude": 17.107
    },
    {
      "address": "Nábrežie Dunaja 1, 811 01 Bratislava, Slovensko",
      "latitude": 48.143,
      "longitude": 17.1079
    },
    {
      "address": "Panská ulica 2, 811 01 Bratislava, Slovensko",
      "latitude": 48.146,
      "longitude": 17.1073
    },
    {
      "address": "Mlynské nivy 1, 811 01 Bratislava, Slovensko",
      "latitude": 48.1465,
      "longitude": 17.108
    }
  ],

  "type": "FeatureCollection"
}
